{"type":"FeatureCollection","crs":{"type":"name","properties":{"name":"EPSG:2926"}},"features":[{"type":"Feature","id":0,"geometry":{"type":"Point","coordinates":[1281073.98009081,262373.91008864302]},"properties":{"FID":0,"OBJECTID":1,"school_ID":106,"school_nam":"Jane Addams MS","mapLabel":"Jane Addams","status":"MS","grades":"6-8","esmshs":"MS","siteID":106,"address":"11051 34th Ave. NE","zip":98125,"Latitude":47.709950686513999,"Longitude":-122.293023646655}},{"type":"Feature","id":1,"geometry":{"type":"Point","coordinates":[1275769.47987306,263746.86009864497]},"properties":{"FID":1,"OBJECTID":2,"school_ID":292,"school_nam":"Hazel Wolf K-8","mapLabel":"Hazel Wolf K-8","status":"Option ELEM","grades":"K-8","esmshs":"ES","siteID":263,"address":"11530 12th Ave. NE","zip":98125,"Latitude":47.713436054025799,"Longitude":-122.31467296520501}},{"type":"Feature","id":2,"geometry":{"type":"Point","coordinates":[1286987.90986398,185254.06990605599]},"properties":{"FID":2,"OBJECTID":3,"school_ID":264,"school_nam":"Rainier View","mapLabel":"Rainier View","status":"ELEM","grades":"K-5","esmshs":"ES","siteID":264,"address":"11650 Beacon Ave. S","zip":98178,"Latitude":47.498869137488299,"Longitude":-122.263186633228}},{"type":"Feature","id":3,"geometry":{"type":"Point","coordinates":[1258789.5000535499,189752.72987197299]},"properties":{"FID":3,"OBJECTID":4,"school_ID":203,"school_nam":"Arbor Heights","mapLabel":"Arbor Heights","status":"ELEM","grades":"K-5","esmshs":"ES","siteID":203,"address":"3701 SW 104th St.","zip":98146,"Latitude":47.509706165658997,"Longitude":-122.37760240386901}},{"type":"Feature","id":4,"geometry":{"type":"Point","coordinates":[1288216.7699390501,191052.88015881201]},"properties":{"FID":4,"OBJECTID":5,"school_ID":221,"school_nam":"Emerson","mapLabel":"Emerson","status":"ELEM","grades":"K-5","esmshs":"ES","siteID":221,"address":"9709 60th Ave. S","zip":98118,"Latitude":47.514826282993297,"Longitude":-122.258650718315}},{"type":"Feature","id":5,"geometry":{"type":"Point","coordinates":[1284973.4601527201,194368.40994505599]},"properties":{"FID":5,"OBJECTID":6,"school_ID":291,"school_nam":"South Shore K-8","mapLabel":"South Shore K-8","status":"Option ELEM","grades":"K-8","esmshs":"ES","siteID":131,"address":"4800 S Henderson St","zip":98118,"Latitude":47.523748764563102,"Longitude":-122.272023697411}},{"type":"Feature","id":6,"geometry":{"type":"Point","coordinates":[1286494.98007555,194459.62006448201]},"properties":{"FID":6,"OBJECTID":7,"school_ID":21,"school_nam":"Rainier Beach","mapLabel":"Rainier Beach","status":"HS","grades":"9-12","esmshs":"HS","siteID":21,"address":"8815 Seward Park Ave S","zip":98118,"Latitude":47.524076581987998,"Longitude":-122.265873558417}},{"type":"Feature","id":7,"geometry":{"type":"Point","coordinates":[1271958.49996223,194568.02995264501]},"properties":{"FID":7,"OBJECTID":8,"school_ID":215,"school_nam":"Concord Int'l","mapLabel":"Concord Int'l","status":"ELEM","grades":"K-5","esmshs":"ES","siteID":215,"address":"723 S Concord St.","zip":98108,"Latitude":47.523616712917999,"Longitude":-122.324705168962}},{"type":"Feature","id":8,"geometry":{"type":"Point","coordinates":[1284328.1901178099,194835.15015330899]},"properties":{"FID":8,"OBJECTID":9,"school_ID":219,"school_nam":"Dunlap","mapLabel":"Dunlap","status":"ELEM","grades":"K-5","esmshs":"ES","siteID":219,"address":"4525 S Cloverdale St.","zip":98118,"Latitude":47.524995005453498,"Longitude":-122.27467023159301}},{"type":"Feature","id":9,"geometry":{"type":"Point","coordinates":[1285252.97009239,194918.31993447201]},"properties":{"FID":9,"OBJECTID":10,"school_ID":960,"school_nam":"Sugiyama High","mapLabel":"Sugiyama","status":"Service School","grades":"9-12","esmshs":"HS","siteID":130,"address":"8601 Rainier Ave. S","zip":98118,"Latitude":47.525270394178598,"Longitude":-122.270934203084}},{"type":"Feature","id":10,"geometry":{"type":"Point","coordinates":[1266143.11001822,195253.18015714001]},"properties":{"FID":10,"OBJECTID":11,"school_ID":235,"school_nam":"Highland Park","mapLabel":"Highland Park","status":"ELEM","grades":"K-5","esmshs":"ES","siteID":235,"address":"1012 SW Trenton St.","zip":98106,"Latitude":47.525183303144203,"Longitude":-122.348291876072}},{"type":"Feature","id":11,"geometry":{"type":"Point","coordinates":[1280804.68994696,196420.060041219]},"properties":{"FID":11,"OBJECTID":12,"school_ID":275,"school_nam":"Rising Star","mapLabel":"Rising Star","status":"ELEM","grades":"K-5","esmshs":"ES","siteID":938,"address":"8311 Beacon Ave. S","zip":98118,"Latitude":47.5291574445123,"Longitude":-122.289050087421}},{"type":"Feature","id":12,"geometry":{"type":"Point","coordinates":[1261752.0699157999,196600.49012656501]},"properties":{"FID":12,"OBJECTID":13,"school_ID":18,"school_nam":"Chief Sealth Int'l","mapLabel":"Chief Sealth Int'l","status":"HS","grades":"9-12","esmshs":"HS","siteID":18,"address":"2600 SW Thistle St.","zip":98126,"Latitude":47.528637857633299,"Longitude":-122.366169391632}},{"type":"Feature","id":13,"geometry":{"type":"Point","coordinates":[1281835.6301422999,196979.82991905499]},"properties":{"FID":13,"OBJECTID":14,"school_ID":286,"school_nam":"Wing Luke","mapLabel":"Wing Luke","status":"ELEM","grades":"K-5","esmshs":"ES","siteID":286,"address":"3701 S Kenyon St.","zip":98118,"Latitude":47.530745158993,"Longitude":-122.284920588254}},{"type":"Feature","id":14,"geometry":{"type":"Point","coordinates":[1261801.99993405,197702.00006264399]},"properties":{"FID":14,"OBJECTID":15,"school_ID":103,"school_nam":"David T. Denny Int'l","mapLabel":"Denny Int'l","status":"MS","grades":"6-8","esmshs":"MS","siteID":103,"address":"2601 SW Kenyon St.","zip":98126,"Latitude":47.531659765462102,"Longitude":-122.366056124235}},{"type":"Feature","id":15,"geometry":{"type":"Point","coordinates":[1259615.9199886301,198177.52995148301]},"properties":{"FID":15,"OBJECTID":16,"school_ID":267,"school_nam":"Roxhill","mapLabel":"Roxhill at E.C. Hughes","status":"ELEM","grades":"K-5","esmshs":"ES","siteID":237,"address":"7740 34th Ave. SW","zip":98126,"Latitude":47.532843465725897,"Longitude":-122.374942013355}},{"type":"Feature","id":16,"geometry":{"type":"Point","coordinates":[1279081.80166048,199802.45124231299]},"properties":{"FID":16,"OBJECTID":17,"school_ID":110,"school_nam":"Mercer","mapLabel":"Mercer interim at Van Asselt","status":"MS","grades":"6-8","esmshs":"MS","siteID":275,"address":"7201 Beacon Ave. S","zip":98108,"Latitude":47.538339013255602,"Longitude":-122.29628288151299}},{"type":"Feature","id":17,"geometry":{"type":"Point","coordinates":[1263683.1500431399,200566.68987131101]},"properties":{"FID":17,"OBJECTID":18,"school_ID":273,"school_nam":"Sanislo","mapLabel":"Sanislo","status":"ELEM","grades":"K-5","esmshs":"ES","siteID":273,"address":"1812 SW Myrtle St.","zip":98106,"Latitude":47.539614198744097,"Longitude":-122.358672676338}},{"type":"Feature","id":18,"geometry":{"type":"Point","coordinates":[1256318.7900999801,200948.50997380901]},"properties":{"FID":18,"OBJECTID":19,"school_ID":225,"school_nam":"Gatewood","mapLabel":"Gatewood","status":"ELEM","grades":"K-5","esmshs":"ES","siteID":225,"address":"4320 SW Myrtle St.","zip":98136,"Latitude":47.540256691318802,"Longitude":-122.38851281806301}},{"type":"Feature","id":19,"geometry":{"type":"Point","coordinates":[1283885.5000583101,200955.799985483]},"properties":{"FID":19,"OBJECTID":20,"school_ID":207,"school_nam":"Martin Luther King Jr","mapLabel":"MLK Jr.","status":"ELEM","grades":"K-5","esmshs":"ES","siteID":207,"address":"6725 45th Ave. S","zip":98118,"Latitude":47.541749023422298,"Longitude":-122.276926340679}},{"type":"Feature","id":20,"geometry":{"type":"Point","coordinates":[1260035.4201338899,201425.01984755701]},"properties":{"FID":20,"OBJECTID":21,"school_ID":236,"school_nam":"West Seattle Elementary","mapLabel":"West Seattle ES","status":"ELEM","grades":"K-5","esmshs":"ES","siteID":236,"address":"6760 34th Ave. SW","zip":98126,"Latitude":47.541767674416199,"Longitude":-122.373507284299}},{"type":"Feature","id":21,"geometry":{"type":"Point","coordinates":[1285981.6198818099,202381.05008772001]},"properties":{"FID":21,"OBJECTID":22,"school_ID":220,"school_nam":"Graham Hill","mapLabel":"Graham Hill","status":"ELEM","grades":"K-5","esmshs":"ES","siteID":220,"address":"5149 S Graham St.","zip":98118,"Latitude":47.545763128190202,"Longitude":-122.268548829493}},{"type":"Feature","id":22,"geometry":{"type":"Point","coordinates":[1282665.2498741399,202649.16011580799]},"properties":{"FID":22,"OBJECTID":23,"school_ID":130,"school_nam":"Aki Kurose","mapLabel":"Aki Kurose","status":"MS","grades":"6-8","esmshs":"MS","siteID":112,"address":"3928 S Graham St.","zip":98118,"Latitude":47.546327677624802,"Longitude":-122.28199496470999}},{"type":"Feature","id":23,"geometry":{"type":"Point","coordinates":[1279173.76998048,204882.48996671999]},"properties":{"FID":23,"OBJECTID":24,"school_ID":251,"school_nam":"Dearborn Park","mapLabel":"Dearborn Park Int'l","status":"ELEM","grades":"K-5","esmshs":"ES","siteID":251,"address":"2820 S Orcas St.","zip":98108,"Latitude":47.552268174810997,"Longitude":-122.29630156641799}},{"type":"Feature","id":24,"geometry":{"type":"Point","coordinates":[1274823.00013871,205005.72987772501]},"properties":{"FID":24,"OBJECTID":25,"school_ID":12,"school_nam":"Cleveland","mapLabel":"Cleveland STEM","status":"Option HS","grades":"9-12","esmshs":"HS","siteID":12,"address":"5511 15th Ave. S","zip":98108,"Latitude":47.5523778755528,"Longitude":-122.31392650198801}},{"type":"Feature","id":25,"geometry":{"type":"Point","coordinates":[1258460.52991097,205401.000084564]},"properties":{"FID":25,"OBJECTID":26,"school_ID":222,"school_nam":"Fairmount Park","mapLabel":"Fairmount Park","status":"ELEM","grades":"K-5","esmshs":"ES","siteID":222,"address":"3800 SW Findlay St.","zip":98126,"Latitude":47.5525790084261,"Longitude":-122.380205833424}},{"type":"Feature","id":26,"geometry":{"type":"Point","coordinates":[1284210.5499331399,205705.44009247399]},"properties":{"FID":26,"OBJECTID":27,"school_ID":939,"school_nam":"Orca K-8","mapLabel":"Orca K-8","status":"Option ELEM","grades":"K-8","esmshs":"ES","siteID":283,"address":"5215 46th Ave. S","zip":98118,"Latitude":47.554784543625097,"Longitude":-122.27597100174999}},{"type":"Feature","id":27,"geometry":{"type":"Point","coordinates":[1281478.9500813901,206997.38009388701]},"properties":{"FID":27,"OBJECTID":28,"school_ID":364,"school_nam":"Interagency at Columbia School","mapLabel":"Interagency at Columbia","status":"Service School","grades":"9-12","esmshs":" ","siteID":213,"address":"3528 S Ferdinand St.","zip":98118,"Latitude":47.558184841872098,"Longitude":-122.28713010404699}},{"type":"Feature","id":28,"geometry":{"type":"Point","coordinates":[1273632.2498955601,207127.80010864101]},"properties":{"FID":28,"OBJECTID":29,"school_ID":252,"school_nam":"Maple","mapLabel":"Maple","status":"ELEM","grades":"K-5","esmshs":"ES","siteID":252,"address":"4925 Corson Ave. S","zip":98108,"Latitude":47.5581315262868,"Longitude":-122.318913476294}},{"type":"Feature","id":29,"geometry":{"type":"Point","coordinates":[1264019.77994731,209314.77998665001]},"properties":{"FID":29,"OBJECTID":30,"school_ID":930,"school_nam":"Pathfinder K-8","mapLabel":"Pathfinder K-8","status":"Option ELEM","grades":"K-8","esmshs":"ES","siteID":216,"address":"1901 SW Genesee St.","zip":98106,"Latitude":47.563610594678302,"Longitude":-122.358011722725}},{"type":"Feature","id":30,"geometry":{"type":"Point","coordinates":[1282452.70010239,209797.739978731]},"properties":{"FID":30,"OBJECTID":31,"school_ID":233,"school_nam":"Hawthorne","mapLabel":"Hawthorne","status":"ELEM","grades":"K-5","esmshs":"ES","siteID":233,"address":"4100 39th Ave. S","zip":98118,"Latitude":47.565911001583501,"Longitude":-122.28340081125801}},{"type":"Feature","id":31,"geometry":{"type":"Point","coordinates":[1254433.8699853099,210195.87993048099]},"properties":{"FID":31,"OBJECTID":32,"school_ID":270,"school_nam":"Genesee Hill","mapLabel":"Genesee Hill","status":"ELEM","grades":"K-5","esmshs":"ES","siteID":227,"address":"5013 SW Dakota St.","zip":98116,"Latitude":47.565498374685397,"Longitude":-122.396903146835}},{"type":"Feature","id":32,"geometry":{"type":"Point","coordinates":[1280727.73996964,212506.779836223]},"properties":{"FID":32,"OBJECTID":33,"school_ID":256,"school_nam":"John Muir","mapLabel":"John Muir","status":"ELEM","grades":"K-5","esmshs":"ES","siteID":256,"address":"3301 S Horton St.","zip":98144,"Latitude":47.573247164767103,"Longitude":-122.29059445245601}},{"type":"Feature","id":33,"geometry":{"type":"Point","coordinates":[1254526.1299713899,212819.58006364101]},"properties":{"FID":33,"OBJECTID":34,"school_ID":202,"school_nam":"Alki","mapLabel":"Alki interim at Schmitz Park","status":"ELEM","grades":"K-5","esmshs":"ES","siteID":270,"address":"5000 SW Spokane St.","zip":98116,"Latitude":47.572694880352699,"Longitude":-122.396745405947}},{"type":"Feature","id":34,"geometry":{"type":"Point","coordinates":[1277664.5000331399,212858.32998613999]},"properties":{"FID":34,"OBJECTID":35,"school_ID":288,"school_nam":"Kimball","mapLabel":"Kimball","status":"ELEM","grades":"K-5","esmshs":"ES","siteID":288,"address":"3200 23rd Ave. S","zip":98144,"Latitude":47.574051070973198,"Longitude":-122.303029081199}},{"type":"Feature","id":35,"geometry":{"type":"Point","coordinates":[1256120.3800637301,212893.619941816]},"properties":{"FID":35,"OBJECTID":36,"school_ID":107,"school_nam":"Madison","mapLabel":"Madison","status":"MS","grades":"6-8","esmshs":"MS","siteID":107,"address":"3429 45th Ave. SW","zip":98116,"Latitude":47.572986420278603,"Longitude":-122.390294291771}},{"type":"Feature","id":36,"geometry":{"type":"Point","coordinates":[1279989.2401343,213486.24014763499]},"properties":{"FID":36,"OBJECTID":37,"school_ID":13,"school_nam":"Franklin","mapLabel":"Franklin","status":"HS","grades":"9-12","esmshs":"HS","siteID":13,"address":"3013 S Mount Baker Blvd.","zip":98144,"Latitude":47.575893488492,"Longitude":-122.29366099072899}},{"type":"Feature","id":37,"geometry":{"type":"Point","coordinates":[1257552.2499033799,214250.75010156599]},"properties":{"FID":37,"OBJECTID":38,"school_ID":19,"school_nam":"West Seattle High","mapLabel":"West Seattle HS","status":"HS","grades":"9-12","esmshs":"HS","siteID":19,"address":"3000 California Ave. SW","zip":98116,"Latitude":47.576785490256,"Longitude":-122.384605574548}},{"type":"Feature","id":38,"geometry":{"type":"Point","coordinates":[1256919.8801051399,215254.31010231399]},"properties":{"FID":38,"OBJECTID":39,"school_ID":239,"school_nam":"Lafayette","mapLabel":"Lafayette","status":"ELEM","grades":"K-5","esmshs":"ES","siteID":239,"address":"2645 California Ave. SW","zip":98116,"Latitude":47.579501207831598,"Longitude":-122.387249154214}},{"type":"Feature","id":39,"geometry":{"type":"Point","coordinates":[1274760.8998692201,217081.83991180401]},"properties":{"FID":39,"OBJECTID":40,"school_ID":205,"school_nam":"Beacon Hill Int'l","mapLabel":"Beacon Hill Int'l","status":"ELEM","grades":"K-5","esmshs":"ES","siteID":205,"address":"2025 14th Ave. S","zip":98144,"Latitude":47.585475020470398,"Longitude":-122.315119486463}},{"type":"Feature","id":40,"geometry":{"type":"Point","coordinates":[1278563.94016339,219011.67004163601]},"properties":{"FID":40,"OBJECTID":41,"school_ID":212,"school_nam":"Thurgood Marshall","mapLabel":"Thurgood Marshall","status":"ELEM","grades":"K-5","esmshs":"ES","siteID":212,"address":"2401 S Irving St.","zip":98144,"Latitude":47.590964366199699,"Longitude":-122.29986092806}},{"type":"Feature","id":41,"geometry":{"type":"Point","coordinates":[1277550.99993205,221583.78005489701]},"properties":{"FID":41,"OBJECTID":42,"school_ID":117,"school_nam":"Washington","mapLabel":"Washington","status":"MS","grades":"6-8","esmshs":"MS","siteID":117,"address":"2101 S Jackson St.","zip":98144,"Latitude":47.597961503955702,"Longitude":-122.304164372312}},{"type":"Feature","id":42,"geometry":{"type":"Point","coordinates":[1274777.6898618899,222820.819903642]},"properties":{"FID":42,"OBJECTID":43,"school_ID":226,"school_nam":"Bailey Gatzert","mapLabel":"Gatzert","status":"ELEM","grades":"K-5","esmshs":"ES","siteID":226,"address":"1301 E Yesler Way","zip":98122,"Latitude":47.601206349841704,"Longitude":-122.315499321565}},{"type":"Feature","id":43,"geometry":{"type":"Point","coordinates":[1280622.75986464,223038.450045809]},"properties":{"FID":43,"OBJECTID":44,"school_ID":244,"school_nam":"Leschi","mapLabel":"Leschi","status":"ELEM","grades":"K-5","esmshs":"ES","siteID":244,"address":"135 32nd Ave.","zip":98122,"Latitude":47.602109010448899,"Longitude":-122.29182822250201}},{"type":"Feature","id":44,"geometry":{"type":"Point","coordinates":[1278156.7700459701,224295.25002564499]},"properties":{"FID":44,"OBJECTID":45,"school_ID":14,"school_nam":"Garfield","mapLabel":"Garfield","status":"HS","grades":"9-12","esmshs":"HS","siteID":14,"address":"400 23rd Ave.","zip":98122,"Latitude":47.6054253310961,"Longitude":-122.301919287701}},{"type":"Feature","id":45,"geometry":{"type":"Point","coordinates":[1278419.13008556,225386.440100476]},"properties":{"FID":45,"OBJECTID":46,"school_ID":23,"school_nam":"Nova","mapLabel":"Nova at Mann","status":"Service School","grades":"9-12","esmshs":"HS","siteID":637,"address":"2410 E Cherry St.","zip":98122,"Latitude":47.608429993816799,"Longitude":-122.300940309853}},{"type":"Feature","id":46,"geometry":{"type":"Point","coordinates":[1280925.7900984699,226729.75007788799]},"properties":{"FID":46,"OBJECTID":47,"school_ID":249,"school_nam":"Madrona","mapLabel":"Madrona","status":"ELEM","grades":"K-5","esmshs":"ES","siteID":249,"address":"1121 33rd Ave.","zip":98122,"Latitude":47.612242594867404,"Longitude":-122.29088350418}},{"type":"Feature","id":47,"geometry":{"type":"Point","coordinates":[1276391.7499539701,227230.85996806601]},"properties":{"FID":47,"OBJECTID":48,"school_ID":983,"school_nam":"World School","mapLabel":"World School at Minor","status":"Service School","grades":"6-12","esmshs":"MSHS","siteID":254,"address":"1700 E Union St.","zip":98122,"Latitude":47.613379237058801,"Longitude":-122.309301000888}},{"type":"Feature","id":48,"geometry":{"type":"Point","coordinates":[1265432.3801404701,230620.449973643]},"properties":{"FID":48,"OBJECTID":49,"school_ID":24,"school_nam":"The Center School","mapLabel":"Center School","status":"Option HS","grades":"9-12","esmshs":"HS","siteID":24,"address":"305 Harrison St.","zip":98109,"Latitude":47.622085074959003,"Longitude":-122.35399633142001}},{"type":"Feature","id":49,"geometry":{"type":"Point","coordinates":[1274227.25001788,231303.90989281199]},"properties":{"FID":49,"OBJECTID":50,"school_ID":245,"school_nam":"Lowell","mapLabel":"Lowell","status":"ELEM","grades":"K-5","esmshs":"ES","siteID":245,"address":"1058 E Mercer St.","zip":98102,"Latitude":47.6244292415468,"Longitude":-122.318393522259}},{"type":"Feature","id":50,"geometry":{"type":"Point","coordinates":[1276868.6801024701,233818.910112143]},"properties":{"FID":50,"OBJECTID":51,"school_ID":272,"school_nam":"Stevens","mapLabel":"Stevens","status":"ELEM","grades":"K-5","esmshs":"ES","siteID":272,"address":"1242 18th Ave. E","zip":98112,"Latitude":47.631462048774502,"Longitude":-122.307879490978}},{"type":"Feature","id":51,"geometry":{"type":"Point","coordinates":[1266068.74008822,234555.13009639099]},"properties":{"FID":51,"OBJECTID":52,"school_ID":234,"school_nam":"John Hay","mapLabel":"Hay","status":"ELEM","grades":"K-5","esmshs":"ES","siteID":234,"address":"201 Garfield St.","zip":98109,"Latitude":47.632904297970299,"Longitude":-122.351731194035}},{"type":"Feature","id":52,"geometry":{"type":"Point","coordinates":[1282564.87999614,234667.01996447099]},"properties":{"FID":52,"OBJECTID":53,"school_ID":248,"school_nam":"McGilvra","mapLabel":"McGilvra","status":"ELEM","grades":"K-5","esmshs":"ES","siteID":248,"address":"1617 38th Ave. E.","zip":98112,"Latitude":47.6340835718335,"Longitude":-122.284846395157}},{"type":"Feature","id":53,"geometry":{"type":"Point","coordinates":[1264312.73014881,236022.869943053]},"properties":{"FID":53,"OBJECTID":54,"school_ID":118,"school_nam":"McClure","mapLabel":"McClure","status":"MS","grades":"6-8","esmshs":"MS","siteID":118,"address":"1915 1st Ave. W","zip":98119,"Latitude":47.636832097804799,"Longitude":-122.358969847179}},{"type":"Feature","id":54,"geometry":{"type":"Point","coordinates":[1266782.3899076399,236389.049984977]},"properties":{"FID":54,"OBJECTID":55,"school_ID":974,"school_nam":"Queen Anne","mapLabel":"Queen Anne","status":"Option ELEM","grades":"K-5","esmshs":"ES","siteID":628,"address":"2100 4th Ave N","zip":98109,"Latitude":47.637969555218099,"Longitude":-122.34898380688701}},{"type":"Feature","id":55,"geometry":{"type":"Point","coordinates":[1262701.8600109699,237401.02007389101]},"properties":{"FID":55,"OBJECTID":56,"school_ID":211,"school_nam":"Coe","mapLabel":"Coe","status":"ELEM","grades":"K-5","esmshs":"ES","siteID":211,"address":"2424 7th Ave. W","zip":98119,"Latitude":47.640521800070701,"Longitude":-122.365613726129}},{"type":"Feature","id":56,"geometry":{"type":"Point","coordinates":[1256041.70010297,237567.69985863601]},"properties":{"FID":56,"OBJECTID":57,"school_ID":250,"school_nam":"Magnolia","mapLabel":"Magnolia","status":"ELEM","grades":"K-5","esmshs":"ES","siteID":250,"address":"2418 28th Ave. W.","zip":98199,"Latitude":47.640611928738998,"Longitude":-122.39263819556901}},{"type":"Feature","id":57,"geometry":{"type":"Point","coordinates":[1272923.56988247,237846.30002322799]},"properties":{"FID":57,"OBJECTID":58,"school_ID":935,"school_nam":"TOPS K-8","mapLabel":"TOPS K-8","status":"Option ELEM","grades":"K-8","esmshs":"ES","siteID":271,"address":"2500  Franklin Ave. E","zip":98102,"Latitude":47.642292674938297,"Longitude":-122.324193083813}},{"type":"Feature","id":58,"geometry":{"type":"Point","coordinates":[1254417.66004397,238203.11984763999]},"properties":{"FID":58,"OBJECTID":59,"school_ID":289,"school_nam":"Catharine Blaine K-8","mapLabel":"Catharine Blaine K-8","status":"ELEM","grades":"K-8","esmshs":"ES","siteID":289,"address":"2550 34th Ave. W","zip":98199,"Latitude":47.642263167196901,"Longitude":-122.39927705460499}},{"type":"Feature","id":59,"geometry":{"type":"Point","coordinates":[1264463.8699383901,239467.139957398]},"properties":{"FID":59,"OBJECTID":60,"school_ID":945,"school_nam":"Cascade","mapLabel":"Cascade PP","status":"Service School","grades":"K-12","esmshs":" ","siteID":258,"address":"2919 1st Ave. W","zip":98119,"Latitude":47.646280878916698,"Longitude":-122.358633804335}},{"type":"Feature","id":60,"geometry":{"type":"Point","coordinates":[1266864.0698623999,242469.88985739599]},"properties":{"FID":60,"OBJECTID":61,"school_ID":218,"school_nam":"B.F. Day","mapLabel":"B.F. Day","status":"ELEM","grades":"K-5","esmshs":"ES","siteID":218,"address":"3921 Linden Ave. N","zip":98103,"Latitude":47.654641276104201,"Longitude":-122.34913835426499}},{"type":"Feature","id":61,"geometry":{"type":"Point","coordinates":[1269615.7100283999,243307.75005830801]},"properties":{"FID":61,"OBJECTID":62,"school_ID":105,"school_nam":"Hamilton Int'l","mapLabel":"Hamilton Int'l","status":"MS","grades":"6-8","esmshs":"MS","siteID":135,"address":"1610 N 41st St.","zip":98103,"Latitude":47.657085847390299,"Longitude":-122.338042153816}},{"type":"Feature","id":62,"geometry":{"type":"Point","coordinates":[1273062.46002464,243404.19015415001]},"properties":{"FID":62,"OBJECTID":63,"school_ID":241,"school_nam":"John Stanford Int'l","mapLabel":"John Stanford Int'l","status":"Option ELEM","grades":"K-5","esmshs":"ES","siteID":241,"address":"4057 5th Ave. NE","zip":98105,"Latitude":47.657534074103197,"Longitude":-122.32406648438599}},{"type":"Feature","id":63,"geometry":{"type":"Point","coordinates":[1256690.2499869801,243430.789838478]},"properties":{"FID":63,"OBJECTID":64,"school_ID":243,"school_nam":"Lawton","mapLabel":"Lawton","status":"ELEM","grades":"K-5","esmshs":"ES","siteID":243,"address":"4000 27th Ave. W.","zip":98199,"Latitude":47.656718216780703,"Longitude":-122.39048914619001}},{"type":"Feature","id":64,"geometry":{"type":"Point","coordinates":[1269243.30001205,244366.399843886]},"properties":{"FID":64,"OBJECTID":65,"school_ID":15,"school_nam":"Lincoln","mapLabel":"Lincoln","status":"HS","grades":"9-12","esmshs":"HS","siteID":15,"address":"4400 Interlake Ave. N","zip":98103,"Latitude":47.659967593861097,"Longitude":-122.339637067632}},{"type":"Feature","id":65,"geometry":{"type":"Point","coordinates":[1284450.63016164,244890.65995022701]},"properties":{"FID":65,"OBJECTID":66,"school_ID":242,"school_nam":"Laurelhurst","mapLabel":"Laurelhurst","status":"ELEM","grades":"K-5","esmshs":"ES","siteID":242,"address":"4530 46th Ave. NE","zip":98105,"Latitude":47.662203857947098,"Longitude":-122.277977682589}},{"type":"Feature","id":66,"geometry":{"type":"Point","coordinates":[1272511.8098792301,247335.86995481001]},"properties":{"FID":66,"OBJECTID":67,"school_ID":247,"school_nam":"McDonald Int'l","mapLabel":"McDonald Int'l","status":"Option ELEM","grades":"K-5","esmshs":"ES","siteID":247,"address":"144 NE 54th St.","zip":98105,"Latitude":47.6682814260691,"Longitude":-122.326610003301}},{"type":"Feature","id":67,"geometry":{"type":"Point","coordinates":[1263746.1200615601,248355.779988483]},"properties":{"FID":67,"OBJECTID":68,"school_ID":281,"school_nam":"West Woodland","mapLabel":"West Woodland","status":"ELEM","grades":"K-5","esmshs":"ES","siteID":281,"address":"5601 4th Ave. NW","zip":98107,"Latitude":47.6706051190423,"Longitude":-122.36226140588199}},{"type":"Feature","id":68,"geometry":{"type":"Point","coordinates":[1281008.30010405,248473.99989639199]},"properties":{"FID":68,"OBJECTID":69,"school_ID":209,"school_nam":"Bryant","mapLabel":"Bryant","status":"ELEM","grades":"K-5","esmshs":"ES","siteID":209,"address":"3311 NE 60th St.","zip":98115,"Latitude":47.671847765777002,"Longitude":-122.292220136883}},{"type":"Feature","id":69,"geometry":{"type":"Point","coordinates":[1256557.7000552299,249606.479914889]},"properties":{"FID":69,"OBJECTID":70,"school_ID":201,"school_nam":"Adams","mapLabel":"Adams","status":"ELEM","grades":"K-5","esmshs":"ES","siteID":201,"address":"6110 28th Ave. NW","zip":98107,"Latitude":47.673637957422699,"Longitude":-122.391534231561}},{"type":"Feature","id":70,"geometry":{"type":"Point","coordinates":[1272100.0200203999,250272.03009297]},"properties":{"FID":70,"OBJECTID":71,"school_ID":229,"school_nam":"Green Lake","mapLabel":"Green Lake","status":"ELEM","grades":"K-5","esmshs":"ES","siteID":229,"address":"2400 N 65th St.","zip":98103,"Latitude":47.676307428216298,"Longitude":-122.328512478183}},{"type":"Feature","id":71,"geometry":{"type":"Point","coordinates":[1259288.58009213,250523.77007505301]},"properties":{"FID":71,"OBJECTID":72,"school_ID":949,"school_nam":"Salmon Bay K-8","mapLabel":"Salmon Bay K-8","status":"Option ELEM","grades":"K-8","esmshs":"ES","siteID":111,"address":"1810 NW 65th St.","zip":98117,"Latitude":47.676303224473997,"Longitude":-122.380526704612}},{"type":"Feature","id":72,"geometry":{"type":"Point","coordinates":[1275970.69994305,250536.430154726]},"properties":{"FID":72,"OBJECTID":73,"school_ID":17,"school_nam":"Roosevelt","mapLabel":"Roosevelt","status":"HS","grades":"9-12","esmshs":"HS","siteID":17,"address":"1410 NE 66th St.","zip":98115,"Latitude":47.677237214090702,"Longitude":-122.31282415187}},{"type":"Feature","id":73,"geometry":{"type":"Point","coordinates":[1273629.49990106,250587.700065315]},"properties":{"FID":73,"OBJECTID":74,"school_ID":255,"school_nam":"Montlake","mapLabel":"Montlake interim at John Marshall","status":"ELEM","grades":"K-5","esmshs":"ES","siteID":108,"address":"520 NE Ravenna Blvd.","zip":98115,"Latitude":47.677253962117099,"Longitude":-122.322329967399}},{"type":"Feature","id":74,"geometry":{"type":"Point","coordinates":[1273629.49990106,250587.700065315]},"properties":{"FID":74,"OBJECTID":75,"school_ID":266,"school_nam":"John Rogers","mapLabel":"John Rogers and Montlake interim at John Marshall","status":"ELEM","grades":"K-5","esmshs":"ES","siteID":108,"address":"520 NE Ravenna Blvd.","zip":98115,"Latitude":47.677253962117099,"Longitude":-122.322329967399}},{"type":"Feature","id":75,"geometry":{"type":"Point","coordinates":[1260675.93985023,250610.24988897101]},"properties":{"FID":75,"OBJECTID":76,"school_ID":11,"school_nam":"Ballard","mapLabel":"Ballard","status":"HS","grades":"9-12","esmshs":"HS","siteID":11,"address":"1418 NW 65th St.","zip":98117,"Latitude":47.676616582416599,"Longitude":-122.374903296417}},{"type":"Feature","id":76,"geometry":{"type":"Point","coordinates":[1255395.88479355,251113.832215145]},"properties":{"FID":76,"OBJECTID":77,"school_ID":955,"school_nam":"Licton Springs K-8","mapLabel":"Licton Springs K-8","status":"Option ELEM","grades":"K-8","esmshs":"ES","siteID":278,"address":"3015 NW 68th St.","zip":98117,"Latitude":47.677704903416299,"Longitude":-122.39637331505099}},{"type":"Feature","id":77,"geometry":{"type":"Point","coordinates":[1285225.1899642199,251621.500163063]},"properties":{"FID":77,"OBJECTID":78,"school_ID":277,"school_nam":"View Ridge","mapLabel":"View Ridge","status":"ELEM","grades":"K-5","esmshs":"ES","siteID":277,"address":"7047 50th Ave. NE","zip":98115,"Latitude":47.680692930500499,"Longitude":-122.275346781118}},{"type":"Feature","id":78,"geometry":{"type":"Point","coordinates":[1280398.1799332199,252381.30999514501]},"properties":{"FID":78,"OBJECTID":79,"school_ID":104,"school_nam":"Eckstein","mapLabel":"Eckstein","status":"MS","grades":"6-8","esmshs":"MS","siteID":134,"address":"3003 NE 75th St.","zip":98115,"Latitude":47.682525928599802,"Longitude":-122.294997277554}},{"type":"Feature","id":79,"geometry":{"type":"Point","coordinates":[1261173.4900362201,253146.52007889701]},"properties":{"FID":79,"OBJECTID":80,"school_ID":282,"school_nam":"Whittier","mapLabel":"Whittier","status":"ELEM","grades":"K-5","esmshs":"ES","siteID":282,"address":"1320 NW 75th St.","zip":98117,"Latitude":47.683595638055102,"Longitude":-122.37309000834099}},{"type":"Feature","id":80,"geometry":{"type":"Point","coordinates":[1282965.93070322,253343.14927880501]},"properties":{"FID":80,"OBJECTID":81,"school_ID":977,"school_nam":"Thornton Creek","mapLabel":"Thornton Creek","status":"Option ELEM","grades":"K-5","esmshs":"ES","siteID":977,"address":"7712 40th Ave NE","zip":98115,"Latitude":47.6852955436771,"Longitude":-122.284648506534}},{"type":"Feature","id":81,"geometry":{"type":"Point","coordinates":[1268771.1700508001,254005.60005363799]},"properties":{"FID":81,"OBJECTID":82,"school_ID":204,"school_nam":"Daniel Bagley","mapLabel":"Bagley","status":"ELEM","grades":"K-5","esmshs":"ES","siteID":204,"address":"7821 Stone Ave. N","zip":98103,"Latitude":47.686362884503502,"Longitude":-122.34231949613999}},{"type":"Feature","id":82,"geometry":{"type":"Point","coordinates":[1257260.2898573901,254263.429918557]},"properties":{"FID":82,"OBJECTID":83,"school_ID":246,"school_nam":"Loyal Heights","mapLabel":"Loyal Heights","status":"ELEM","grades":"K-5","esmshs":"ES","siteID":246,"address":"7735 25th Ave NW","zip":98117,"Latitude":47.686441263243204,"Longitude":-122.389065109431}},{"type":"Feature","id":83,"geometry":{"type":"Point","coordinates":[1264429.86016388,254418.42993664701]},"properties":{"FID":83,"OBJECTID":84,"school_ID":230,"school_nam":"Greenwood","mapLabel":"Greenwood","status":"ELEM","grades":"K-5","esmshs":"ES","siteID":230,"address":"144 NW 80th St.","zip":98117,"Latitude":47.6872597105843,"Longitude":-122.359974928144}},{"type":"Feature","id":84,"geometry":{"type":"Point","coordinates":[1279943.71988414,255315.14992797401]},"properties":{"FID":84,"OBJECTID":85,"school_ID":279,"school_nam":"Wedgwood","mapLabel":"Wedgwood","status":"ELEM","grades":"K-5","esmshs":"ES","siteID":279,"address":"2720 NE 85th St.","zip":98115,"Latitude":47.6905438687348,"Longitude":-122.297068434595}},{"type":"Feature","id":85,"geometry":{"type":"Point","coordinates":[1257819.37010406,257367.53000955301]},"properties":{"FID":85,"OBJECTID":86,"school_ID":259,"school_nam":"North Beach","mapLabel":"North Beach","status":"ELEM","grades":"K-5","esmshs":"ES","siteID":259,"address":"9018 24th Ave. NW","zip":98117,"Latitude":47.6949803248149,"Longitude":-122.38705013421099}},{"type":"Feature","id":86,"geometry":{"type":"Point","coordinates":[1260155.0701570499,257968.80997498301]},"properties":{"FID":86,"OBJECTID":87,"school_ID":115,"school_nam":"Whitman","mapLabel":"Whitman","status":"MS","grades":"6-8","esmshs":"MS","siteID":115,"address":"9201 15th Ave. NW","zip":98117,"Latitude":47.696757266587397,"Longitude":-122.377616555873}},{"type":"Feature","id":87,"geometry":{"type":"Point","coordinates":[1274037.94002905,258235.33011122001]},"properties":{"FID":87,"OBJECTID":88,"school_ID":262,"school_nam":"Olympic View","mapLabel":"Olympic View","status":"ELEM","grades":"K-5","esmshs":"ES","siteID":262,"address":"504 NE 95th St.","zip":98115,"Latitude":47.698237542129199,"Longitude":-122.32127249390599}},{"type":"Feature","id":88,"geometry":{"type":"Point","coordinates":[1277433.42011473,258249.08008372801]},"properties":{"FID":88,"OBJECTID":89,"school_ID":268,"school_nam":"Sacajawea","mapLabel":"Sacajawea","status":"ELEM","grades":"K-5","esmshs":"ES","siteID":268,"address":"9501 20th Ave. NE","zip":98115,"Latitude":47.698454365878099,"Longitude":-122.307487344354}},{"type":"Feature","id":89,"geometry":{"type":"Point","coordinates":[1264277.4999043001,261250.82998572299]},"properties":{"FID":89,"OBJECTID":90,"school_ID":276,"school_nam":"Viewlands","mapLabel":"Viewlands","status":"ELEM","grades":"K-5","esmshs":"ES","siteID":276,"address":"10525 3rd Ave. NW","zip":98177,"Latitude":47.705978632450503,"Longitude":-122.361144077343}},{"type":"Feature","id":90,"geometry":{"type":"Point","coordinates":[1280683.36997963,261536.27987414601]},"properties":{"FID":90,"OBJECTID":91,"school_ID":22,"school_nam":"Nathan Hale","mapLabel":"Nathan Hale","status":"HS","grades":"9-12","esmshs":"HS","siteID":22,"address":"10750 30th Ave. NE","zip":98125,"Latitude":47.7076344327022,"Longitude":-122.294545354725}},{"type":"Feature","id":91,"geometry":{"type":"Point","coordinates":[1272105.72998272,264341.99014197302]},"properties":{"FID":91,"OBJECTID":92,"school_ID":257,"school_nam":"James Baldwin","mapLabel":"James Baldwin","status":"ELEM","grades":"K-5","esmshs":"ES","siteID":257,"address":"11725 1st Ave. NE","zip":98125,"Latitude":47.7148729847965,"Longitude":-122.32959967517399}},{"type":"Feature","id":92,"geometry":{"type":"Point","coordinates":[1277786.25996022,267449.85006797302]},"properties":{"FID":92,"OBJECTID":93,"school_ID":261,"school_nam":"Olympic Hills","mapLabel":"Olympic Hills","status":"ELEM","grades":"K-5","esmshs":"ES","siteID":261,"address":"13018 20th Ave. NE","zip":98125,"Latitude":47.7236919872702,"Longitude":-122.306770081246}},{"type":"Feature","id":93,"geometry":{"type":"Point","coordinates":[1266376.4901288899,268016.51986639202]},"properties":{"FID":93,"OBJECTID":94,"school_ID":208,"school_nam":"Broadview-Thomson K-8","mapLabel":"Broadview-Thomson K-8","status":"ELEM","grades":"K-8","esmshs":"ES","siteID":208,"address":"13052 Greenwood Ave. N","zip":98133,"Latitude":47.724636927230698,"Longitude":-122.35316330384499}},{"type":"Feature","id":94,"geometry":{"type":"Point","coordinates":[1270397.7599734699,268327.269901052]},"properties":{"FID":94,"OBJECTID":95,"school_ID":20,"school_nam":"Ingraham","mapLabel":"Ingraham Int'l","status":"HS","grades":"9-12","esmshs":"HS","siteID":20,"address":"1819 N 135th St.","zip":98133,"Latitude":47.725705213785098,"Longitude":-122.33685275868901}},{"type":"Feature","id":95,"geometry":{"type":"Point","coordinates":[1288231.26006755,248998.63008073001]},"properties":{"FID":95,"OBJECTID":96,"school_ID":269,"school_nam":"Sand Point","mapLabel":"Sand Point","status":"ELEM","grades":"K-5","esmshs":"ES","siteID":269,"address":"6208 60th Ave. NE","zip":98115,"Latitude":47.673657374154502,"Longitude":-122.262947830608}},{"type":"Feature","id":96,"geometry":{"type":"Point","coordinates":[1262888.3399529799,203870.059904978]},"properties":{"FID":96,"OBJECTID":97,"school_ID":972,"school_nam":"Louisa Boren K-8","mapLabel":"Boren STEM K-8","status":"Option ELEM","grades":"K-8","esmshs":"ES","siteID":119,"address":"5950 Delridge Way SW","zip":98106,"Latitude":47.5486253430403,"Longitude":-122.362155538671}},{"type":"Feature","id":97,"geometry":{"type":"Point","coordinates":[1269119.83831672,257104.03152081399]},"properties":{"FID":97,"OBJECTID":98,"school_ID":113,"school_nam":"Robert Eagle Staff","mapLabel":"Robert Eagle Staff","status":"MS","grades":"6-8","esmshs":"MS","siteID":136,"address":"1330 N 90th St.","zip":98103,"Latitude":47.6948742824787,"Longitude":-122.341150636508}},{"type":"Feature","id":98,"geometry":{"type":"Point","coordinates":[1277445.8800635501,230213.14009273099]},"properties":{"FID":98,"OBJECTID":99,"school_ID":109,"school_nam":"Meany Middle School","mapLabel":"Meany","status":"MS","grades":"6-8","esmshs":"MS","siteID":139,"address":"301 21st Ave. E","zip":98112,"Latitude":47.621608973089003,"Longitude":-122.305259279598}},{"type":"Feature","id":99,"geometry":{"type":"Point","coordinates":[1270067.5965918,257113.15551830799]},"properties":{"FID":99,"OBJECTID":100,"school_ID":971,"school_nam":"Cascadia","mapLabel":"Cascadia","status":"HC","grades":"K-5","esmshs":"ES","siteID":780,"address":"1700 N 90th St.","zip":98103,"Latitude":47.694950130629998,"Longitude":-122.337303580803}},{"type":"Feature","id":100,"geometry":{"type":"Point","coordinates":[1282531.86792305,268135.87592689699]},"properties":{"FID":100,"OBJECTID":101,"school_ID":210,"school_nam":"Cedar Park","mapLabel":"Cedar Park","status":"Option ELEM","grades":"K-5","esmshs":"ES","siteID":210,"address":"13224 37th Ave. NE","zip":98125,"Latitude":47.725819824407502,"Longitude":-122.287545242333}},{"type":"Feature","id":101,"geometry":{"type":"Point","coordinates":[1265680.6739352201,234243.29115314799]},"properties":{"FID":101,"OBJECTID":102,"school_ID":365,"school_nam":"Interagency at Queen Anne","mapLabel":"Queen Anne Gym","status":"NonStandard","grades":"9-12","esmshs":" ","siteID":784,"address":"1431 2nd Ave N","zip":98109,"Latitude":47.632028561499403,"Longitude":-122.35327983238599}},{"type":"Feature","id":102,"geometry":{"type":"Point","coordinates":[1283463.8867283,253488.276285142]},"properties":{"FID":102,"OBJECTID":103,"school_ID":287,"school_nam":"Decatur","mapLabel":"Decatur","status":"HC","grades":"1-5","esmshs":"ES","siteID":287,"address":"7711 43rd Ave NE","zip":98115,"Latitude":47.6857190618027,"Longitude":-122.282638308229}}]}